<?xml version="1.0" encoding="utf-8"?>
<Volunteers>
  <Volunteer>
    <Id>264978446</Id>
    <Name>Daniel Cohen</Name>
    <MobilePhone>0511254811</MobilePhone>
    <Email>daniel.cohen@gmail.com</Email>
    <Role>Volunteer</Role>
    <IsActive>true</IsActive>
    <Password>367453491</Password>
    <CurrentAddress>Dizengoff St 50, Tel Aviv</CurrentAddress>
    <Latitude>32.0764</Latitude>
    <Longitude>34.7745</Longitude>
    <MaxCallDistance>5</MaxCallDistance>
    <DistancePreference>Aerial</DistancePreference>
  </Volunteer>
  <Volunteer>
    <Id>241780758</Id>
    <Name>Michal Levy</Name>
    <MobilePhone>0565384475</MobilePhone>
    <Email>michal.levy@gmail.com</Email>
    <Role>Volunteer</Role>
    <IsActive>true</IsActive>
    <Password>760583550</Password>
    <CurrentAddress>Jaffa St 1, Jerusalem</CurrentAddress>
    <Latitude>31.7823</Latitude>
    <Longitude>35.2191</Longitude>
    <MaxCallDistance>12</MaxCallDistance>
    <DistancePreference>Aerial</DistancePreference>
  </Volunteer>
  <Volunteer>
    <Id>324678028</Id>
    <Name>Yossi Mizrahi</Name>
    <MobilePhone>0520149414</MobilePhone>
    <Email>yossi.mizrahi@gmail.com</Email>
    <Role>Volunteer</Role>
    <IsActive>true</IsActive>
    <Password>113398430</Password>
    <CurrentAddress>Rothschild Blvd 16, Tel Aviv</CurrentAddress>
    <Latitude>32.0657</Latitude>
    <Longitude>34.7741</Longitude>
    <MaxCallDistance>6</MaxCallDistance>
    <DistancePreference>Aerial</DistancePreference>
  </Volunteer>
  <Volunteer>
    <Id>389246133</Id>
    <Name>Sarit Israeli</Name>
    <MobilePhone>0510233938</MobilePhone>
    <Email>sarit.israeli@gmail.com</Email>
    <Role>Volunteer</Role>
    <IsActive>true</IsActive>
    <Password>401965835</Password>
    <CurrentAddress>Haatzmaut St 85, Haifa</CurrentAddress>
    <Latitude>32.8191</Latitude>
    <Longitude>34.9972</Longitude>
    <MaxCallDistance>8</MaxCallDistance>
    <DistancePreference>Aerial</DistancePreference>
  </Volunteer>
  <Volunteer>
    <Id>256651621</Id>
    <Name>Tomer Friedman</Name>
    <MobilePhone>0535438232</MobilePhone>
    <Email>tomer.friedman@gmail.com</Email>
    <Role>Volunteer</Role>
    <IsActive>true</IsActive>
    <Password>222817620</Password>
    <CurrentAddress>Herzl St 4, Beersheba</CurrentAddress>
    <Latitude>31.2526</Latitude>
    <Longitude>34.7925</Longitude>
    <MaxCallDistance>18</MaxCallDistance>
    <DistancePreference>Aerial</DistancePreference>
  </Volunteer>
  <Volunteer>
    <Id>354156697</Id>
    <Name>Naama Avidan</Name>
    <MobilePhone>0574915242</MobilePhone>
    <Email>naama.avidan@gmail.com</Email>
    <Role>Volunteer</Role>
    <IsActive>true</IsActive>
    <Password>627944844</Password>
    <CurrentAddress>Hanasi St 120, Ashdod</CurrentAddress>
    <Latitude>31.7926</Latitude>
    <Longitude>34.6496</Longitude>
    <MaxCallDistance>18</MaxCallDistance>
    <DistancePreference>Aerial</DistancePreference>
  </Volunteer>
  <Volunteer>
    <Id>385721386</Id>
    <Name>Ron Goldman</Name>
    <MobilePhone>0574388149</MobilePhone>
    <Email>ron.goldman@gmail.com</Email>
    <Role>Volunteer</Role>
    <IsActive>true</IsActive>
    <Password>229833078</Password>
    <CurrentAddress>Chen Blvd 3, Ra'anana</CurrentAddress>
    <Latitude>32.1847</Latitude>
    <Longitude>34.8709</Longitude>
    <MaxCallDistance>12</MaxCallDistance>
    <DistancePreference>Aerial</DistancePreference>
  </Volunteer>
  <Volunteer>
    <Id>322429515</Id>
    <Name>Elinor Bachar</Name>
    <MobilePhone>0527898709</MobilePhone>
    <Email>elinor.bachar@gmail.com</Email>
    <Role>Volunteer</Role>
    <IsActive>true</IsActive>
    <Password>977564101</Password>
    <CurrentAddress>Hacarmel St 5, Afula</CurrentAddress>
    <Latitude>32.6072</Latitude>
    <Longitude>35.2903</Longitude>
    <MaxCallDistance>18</MaxCallDistance>
    <DistancePreference>Aerial</DistancePreference>
  </Volunteer>
  <Volunteer>
    <Id>326779063</Id>
    <Name>Moshe Barak</Name>
    <MobilePhone>0594462419</MobilePhone>
    <Email>moshe.barak@gmail.com</Email>
    <Role>Volunteer</Role>
    <IsActive>true</IsActive>
    <Password>188459001</Password>
    <CurrentAddress>Degania Blvd 50, Holon</CurrentAddress>
    <Latitude>32.0094</Latitude>
    <Longitude>34.7766</Longitude>
    <MaxCallDistance>17</MaxCallDistance>
    <DistancePreference>Aerial</DistancePreference>
  </Volunteer>
  <Volunteer>
    <Id>256344722</Id>
    <Name>Tali Katz</Name>
    <MobilePhone>0579428765</MobilePhone>
    <Email>tali.katz@gmail.com</Email>
    <Role>Volunteer</Role>
    <IsActive>true</IsActive>
    <Password>141312145</Password>
    <CurrentAddress>Ben Gurion St 35, Bat Yam</CurrentAddress>
    <Latitude>32.0233</Latitude>
    <Longitude>34.7503</Longitude>
    <MaxCallDistance>8</MaxCallDistance>
    <DistancePreference>Aerial</DistancePreference>
  </Volunteer>
  <Volunteer>
    <Id>385577291</Id>
    <Name>Dina Rozenberg</Name>
    <MobilePhone>0574040180</MobilePhone>
    <Email>dina.rozenberg@gmail.com</Email>
    <Role>Volunteer</Role>
    <IsActive>true</IsActive>
    <Password>667228721</Password>
    <CurrentAddress>Herzl St 40, Kfar Saba</CurrentAddress>
    <Latitude>32.1753</Latitude>
    <Longitude>34.9067</Longitude>
    <MaxCallDistance>12</MaxCallDistance>
    <DistancePreference>Aerial</DistancePreference>
  </Volunteer>
  <Volunteer>
    <Id>228418786</Id>
    <Name>Liat Sharon</Name>
    <MobilePhone>0556352662</MobilePhone>
    <Email>liat.sharon@gmail.com</Email>
    <Role>Volunteer</Role>
    <IsActive>true</IsActive>
    <Password>589317722</Password>
    <CurrentAddress>Gordon St 8, Netanya</CurrentAddress>
    <Latitude>32.3328</Latitude>
    <Longitude>34.8556</Longitude>
    <MaxCallDistance>9</MaxCallDistance>
    <DistancePreference>Aerial</DistancePreference>
  </Volunteer>
  <Volunteer>
    <Id>339071722</Id>
    <Name>Avi Hasson</Name>
    <MobilePhone>0530347480</MobilePhone>
    <Email>avi.hasson@gmail.com</Email>
    <Role>Volunteer</Role>
    <IsActive>true</IsActive>
    <Password>81690967</Password>
    <CurrentAddress>Yehudit Blvd 10, Tel Aviv</CurrentAddress>
    <Latitude>32.0625</Latitude>
    <Longitude>34.7942</Longitude>
    <MaxCallDistance>10</MaxCallDistance>
    <DistancePreference>Aerial</DistancePreference>
  </Volunteer>
  <Volunteer>
    <Id>247833908</Id>
    <Name>Yael Zimmerman</Name>
    <MobilePhone>0586822980</MobilePhone>
    <Email>yael.zimmerman@gmail.com</Email>
    <Role>Volunteer</Role>
    <IsActive>true</IsActive>
    <Password>982616787</Password>
    <CurrentAddress>Hayam St 2, Eilat</CurrentAddress>
    <Latitude>29.5535</Latitude>
    <Longitude>34.9519</Longitude>
    <MaxCallDistance>19</MaxCallDistance>
    <DistancePreference>Aerial</DistancePreference>
  </Volunteer>
  <Volunteer>
    <Id>349711085</Id>
    <Name>Omar Rafael</Name>
    <MobilePhone>0569220880</MobilePhone>
    <Email>omar.rafael@gmail.com</Email>
    <Role>Volunteer</Role>
    <IsActive>true</IsActive>
    <Password>51900099</Password>
    <CurrentAddress>Horev St 17, Haifa</CurrentAddress>
    <Latitude>32.7811</Latitude>
    <Longitude>35.0105</Longitude>
    <MaxCallDistance>13</MaxCallDistance>
    <DistancePreference>Aerial</DistancePreference>
  </Volunteer>
</Volunteers>