<?xml version="1.0" encoding="utf-8"?>
<Volunteers>
  <Volunteer>
    <Id>227468352</Id>
    <Name>Daniel Cohen</Name>
    <MobilePhone>0515199982</MobilePhone>
    <Email>daniel.cohen@gmail.com</Email>
    <Role>Volunteer</Role>
    <IsActive>true</IsActive>
    <Password>39497672</Password>
    <CurrentAddress>Dizengoff St 50, Tel Aviv</CurrentAddress>
    <Latitude>32.0764</Latitude>
    <Longitude>34.7745</Longitude>
    <MaxCallDistance>8</MaxCallDistance>
    <DistancePreference>Aerial</DistancePreference>
  </Volunteer>
  <Volunteer>
    <Id>253048862</Id>
    <Name>Michal Levy</Name>
    <MobilePhone>0552720034</MobilePhone>
    <Email>michal.levy@gmail.com</Email>
    <Role>Volunteer</Role>
    <IsActive>true</IsActive>
    <Password>268478481</Password>
    <CurrentAddress>Jaffa St 1, Jerusalem</CurrentAddress>
    <Latitude>31.7823</Latitude>
    <Longitude>35.2191</Longitude>
    <MaxCallDistance>2</MaxCallDistance>
    <DistancePreference>Aerial</DistancePreference>
  </Volunteer>
  <Volunteer>
    <Id>312492820</Id>
    <Name>Yossi Mizrahi</Name>
    <MobilePhone>0586141014</MobilePhone>
    <Email>yossi.mizrahi@gmail.com</Email>
    <Role>Volunteer</Role>
    <IsActive>true</IsActive>
    <Password>862329802</Password>
    <CurrentAddress>Rothschild Blvd 16, Tel Aviv</CurrentAddress>
    <Latitude>32.0657</Latitude>
    <Longitude>34.7741</Longitude>
    <MaxCallDistance>2</MaxCallDistance>
    <DistancePreference>Aerial</DistancePreference>
  </Volunteer>
  <Volunteer>
    <Id>293591046</Id>
    <Name>Sarit Israeli</Name>
    <MobilePhone>0563434477</MobilePhone>
    <Email>sarit.israeli@gmail.com</Email>
    <Role>Volunteer</Role>
    <IsActive>true</IsActive>
    <Password>555373270</Password>
    <CurrentAddress>Haatzmaut St 85, Haifa</CurrentAddress>
    <Latitude>32.8191</Latitude>
    <Longitude>34.9972</Longitude>
    <MaxCallDistance>16</MaxCallDistance>
    <DistancePreference>Aerial</DistancePreference>
  </Volunteer>
  <Volunteer>
    <Id>247421514</Id>
    <Name>Tomer Friedman</Name>
    <MobilePhone>0521407148</MobilePhone>
    <Email>tomer.friedman@gmail.com</Email>
    <Role>Volunteer</Role>
    <IsActive>true</IsActive>
    <Password>570484799</Password>
    <CurrentAddress>Herzl St 4, Beersheba</CurrentAddress>
    <Latitude>31.2526</Latitude>
    <Longitude>34.7925</Longitude>
    <MaxCallDistance>17</MaxCallDistance>
    <DistancePreference>Aerial</DistancePreference>
  </Volunteer>
  <Volunteer>
    <Id>377077623</Id>
    <Name>Naama Avidan</Name>
    <MobilePhone>0529942559</MobilePhone>
    <Email>naama.avidan@gmail.com</Email>
    <Role>Volunteer</Role>
    <IsActive>true</IsActive>
    <Password>975674727</Password>
    <CurrentAddress>Hanasi St 120, Ashdod</CurrentAddress>
    <Latitude>31.7926</Latitude>
    <Longitude>34.6496</Longitude>
    <MaxCallDistance>1</MaxCallDistance>
    <DistancePreference>Aerial</DistancePreference>
  </Volunteer>
  <Volunteer>
    <Id>269073748</Id>
    <Name>Ron Goldman</Name>
    <MobilePhone>0555136108</MobilePhone>
    <Email>ron.goldman@gmail.com</Email>
    <Role>Volunteer</Role>
    <IsActive>true</IsActive>
    <Password>355529509</Password>
    <CurrentAddress>Chen Blvd 3, Ra'anana</CurrentAddress>
    <Latitude>32.1847</Latitude>
    <Longitude>34.8709</Longitude>
    <MaxCallDistance>14</MaxCallDistance>
    <DistancePreference>Aerial</DistancePreference>
  </Volunteer>
  <Volunteer>
    <Id>360441281</Id>
    <Name>Elinor Bachar</Name>
    <MobilePhone>0523308434</MobilePhone>
    <Email>elinor.bachar@gmail.com</Email>
    <Role>Volunteer</Role>
    <IsActive>true</IsActive>
    <Password>41704258</Password>
    <CurrentAddress>Hacarmel St 5, Afula</CurrentAddress>
    <Latitude>32.6072</Latitude>
    <Longitude>35.2903</Longitude>
    <MaxCallDistance>10</MaxCallDistance>
    <DistancePreference>Aerial</DistancePreference>
  </Volunteer>
  <Volunteer>
    <Id>373621705</Id>
    <Name>Moshe Barak</Name>
    <MobilePhone>0538554467</MobilePhone>
    <Email>moshe.barak@gmail.com</Email>
    <Role>Volunteer</Role>
    <IsActive>true</IsActive>
    <Password>274341537</Password>
    <CurrentAddress>Degania Blvd 50, Holon</CurrentAddress>
    <Latitude>32.0094</Latitude>
    <Longitude>34.7766</Longitude>
    <MaxCallDistance>3</MaxCallDistance>
    <DistancePreference>Aerial</DistancePreference>
  </Volunteer>
  <Volunteer>
    <Id>327968038</Id>
    <Name>Tali Katz</Name>
    <MobilePhone>0542813957</MobilePhone>
    <Email>tali.katz@gmail.com</Email>
    <Role>Volunteer</Role>
    <IsActive>true</IsActive>
    <Password>671883413</Password>
    <CurrentAddress>Ben Gurion St 35, Bat Yam</CurrentAddress>
    <Latitude>32.0233</Latitude>
    <Longitude>34.7503</Longitude>
    <MaxCallDistance>3</MaxCallDistance>
    <DistancePreference>Aerial</DistancePreference>
  </Volunteer>
  <Volunteer>
    <Id>261214167</Id>
    <Name>Dina Rozenberg</Name>
    <MobilePhone>0535203063</MobilePhone>
    <Email>dina.rozenberg@gmail.com</Email>
    <Role>Volunteer</Role>
    <IsActive>true</IsActive>
    <Password>931792690</Password>
    <CurrentAddress>Herzl St 40, Kfar Saba</CurrentAddress>
    <Latitude>32.1753</Latitude>
    <Longitude>34.9067</Longitude>
    <MaxCallDistance>14</MaxCallDistance>
    <DistancePreference>Aerial</DistancePreference>
  </Volunteer>
  <Volunteer>
    <Id>204716591</Id>
    <Name>Liat Sharon</Name>
    <MobilePhone>0512188906</MobilePhone>
    <Email>liat.sharon@gmail.com</Email>
    <Role>Volunteer</Role>
    <IsActive>true</IsActive>
    <Password>172619893</Password>
    <CurrentAddress>Gordon St 8, Netanya</CurrentAddress>
    <Latitude>32.3328</Latitude>
    <Longitude>34.8556</Longitude>
    <MaxCallDistance>6</MaxCallDistance>
    <DistancePreference>Aerial</DistancePreference>
  </Volunteer>
  <Volunteer>
    <Id>326816709</Id>
    <Name>Avi Hasson</Name>
    <MobilePhone>0569557393</MobilePhone>
    <Email>avi.hasson@gmail.com</Email>
    <Role>Volunteer</Role>
    <IsActive>true</IsActive>
    <Password>302683053</Password>
    <CurrentAddress>Yehudit Blvd 10, Tel Aviv</CurrentAddress>
    <Latitude>32.0625</Latitude>
    <Longitude>34.7942</Longitude>
    <MaxCallDistance>11</MaxCallDistance>
    <DistancePreference>Aerial</DistancePreference>
  </Volunteer>
  <Volunteer>
    <Id>385686134</Id>
    <Name>Yael Zimmerman</Name>
    <MobilePhone>0598820818</MobilePhone>
    <Email>yael.zimmerman@gmail.com</Email>
    <Role>Volunteer</Role>
    <IsActive>true</IsActive>
    <Password>736422106</Password>
    <CurrentAddress>Hayam St 2, Eilat</CurrentAddress>
    <Latitude>29.5535</Latitude>
    <Longitude>34.9519</Longitude>
    <MaxCallDistance>18</MaxCallDistance>
    <DistancePreference>Aerial</DistancePreference>
  </Volunteer>
  <Volunteer>
    <Id>281422451</Id>
    <Name>Omar Rafael</Name>
    <MobilePhone>0548350247</MobilePhone>
    <Email>omar.rafael@gmail.com</Email>
    <Role>Volunteer</Role>
    <IsActive>true</IsActive>
    <Password>303465133</Password>
    <CurrentAddress>Horev St 17, Haifa</CurrentAddress>
    <Latitude>32.7811</Latitude>
    <Longitude>35.0105</Longitude>
    <MaxCallDistance>12</MaxCallDistance>
    <DistancePreference>Aerial</DistancePreference>
  </Volunteer>
  <Volunteer>
    <Id>328308721</Id>
    <Name>Omar Rafael</Name>
    <MobilePhone>0548350241</MobilePhone>
    <Email>omar.rafael@gmail.com</Email>
    <Role>Admin</Role>
    <IsActive>true</IsActive>
    <Password>303465133</Password>
    <CurrentAddress>Horev St 17, Haifa</CurrentAddress>
    <Latitude>32.7812232</Latitude>
    <Longitude>34.9908479</Longitude>
    <MaxCallDistance>15</MaxCallDistance>
    <DistancePreference>Aerial</DistancePreference>
  </Volunteer>
</Volunteers>