<?xml version="1.0" encoding="utf-8"?>
<Volunteers>
  <Volunteer>
    <Id>382630432</Id>
    <FullName>Daniel Cohen</FullName>
    <MobilePhone>0517527591</MobilePhone>
    <Email>daniel.cohen@ail.com</Email>
    <Role>Volunteer</Role>
    <IsActive>true</IsActive>
    <Password>47628145</Password>
    <CurrentAddress>Dizengoff St 50, Tel Aviv</CurrentAddress>
    <Latitude>32.0764</Latitude>
    <Longitude>34.7745</Longitude>
    <MaxCallDistance>44</MaxCallDistance>
    <DistancePreference>Aerial</DistancePreference>
  </Volunteer>
  <Volunteer>
    <Id>211007653</Id>
    <FullName>Michal Levy</FullName>
    <MobilePhone>0542477307</MobilePhone>
    <Email>michal.levy@ail.com</Email>
    <Role>Admin</Role>
    <IsActive>true</IsActive>
    <Password>68862970</Password>
    <CurrentAddress>Jaffa St 1, Jerusalem</CurrentAddress>
    <Latitude>31.7823</Latitude>
    <Longitude>35.2191</Longitude>
    <MaxCallDistance>34</MaxCallDistance>
    <DistancePreference>Aerial</DistancePreference>
  </Volunteer>
  <Volunteer>
    <Id>266119072</Id>
    <FullName>Yossi Mizrahi</FullName>
    <MobilePhone>0595060249</MobilePhone>
    <Email>yossi.mizrahi@ail.com</Email>
    <Role>Admin</Role>
    <IsActive>true</IsActive>
    <Password>22066566</Password>
    <CurrentAddress>Rothschild Blvd 16, Tel Aviv</CurrentAddress>
    <Latitude>32.0657</Latitude>
    <Longitude>34.7741</Longitude>
    <MaxCallDistance>46</MaxCallDistance>
    <DistancePreference>Aerial</DistancePreference>
  </Volunteer>
  <Volunteer>
    <Id>233551365</Id>
    <FullName>Sarit Israeli</FullName>
    <MobilePhone>0536670758</MobilePhone>
    <Email>sarit.israeli@ail.com</Email>
    <Role>Volunteer</Role>
    <IsActive>true</IsActive>
    <Password>36935348</Password>
    <CurrentAddress>Haatzmaut St 85, Haifa</CurrentAddress>
    <Latitude>32.8191</Latitude>
    <Longitude>34.9972</Longitude>
    <MaxCallDistance>49</MaxCallDistance>
    <DistancePreference>Aerial</DistancePreference>
  </Volunteer>
  <Volunteer>
    <Id>340019389</Id>
    <FullName>Tomer Friedman</FullName>
    <MobilePhone>0541461597</MobilePhone>
    <Email>tomer.friedman@ail.com</Email>
    <Role>Volunteer</Role>
    <IsActive>true</IsActive>
    <Password>93442456</Password>
    <CurrentAddress>Herzl St 4, Beersheba</CurrentAddress>
    <Latitude>31.2526</Latitude>
    <Longitude>34.7925</Longitude>
    <MaxCallDistance>32</MaxCallDistance>
    <DistancePreference>Aerial</DistancePreference>
  </Volunteer>
  <Volunteer>
    <Id>373026681</Id>
    <FullName>Naama Avidan</FullName>
    <MobilePhone>0589013985</MobilePhone>
    <Email>naama.avidan@ail.com</Email>
    <Role>Volunteer</Role>
    <IsActive>true</IsActive>
    <Password>80713184</Password>
    <CurrentAddress>Hanasi St 120, Ashdod</CurrentAddress>
    <Latitude>31.7926</Latitude>
    <Longitude>34.6496</Longitude>
    <MaxCallDistance>54</MaxCallDistance>
    <DistancePreference>Aerial</DistancePreference>
  </Volunteer>
  <Volunteer>
    <Id>364661371</Id>
    <FullName>Ron Goldman</FullName>
    <MobilePhone>0572150937</MobilePhone>
    <Email>ron.goldman@ail.com</Email>
    <Role>Volunteer</Role>
    <IsActive>true</IsActive>
    <Password>27071536</Password>
    <CurrentAddress>Chen Blvd 3, Ra'anana</CurrentAddress>
    <Latitude>32.1847</Latitude>
    <Longitude>34.8709</Longitude>
    <MaxCallDistance>32</MaxCallDistance>
    <DistancePreference>Aerial</DistancePreference>
  </Volunteer>
  <Volunteer>
    <Id>352499412</Id>
    <FullName>Elinor Bachar</FullName>
    <MobilePhone>0560346138</MobilePhone>
    <Email>elinor.bachar@ail.com</Email>
    <Role>Volunteer</Role>
    <IsActive>true</IsActive>
    <Password>55778783</Password>
    <CurrentAddress>Hacarmel St 5, Afula</CurrentAddress>
    <Latitude>32.6072</Latitude>
    <Longitude>35.2903</Longitude>
    <MaxCallDistance>38</MaxCallDistance>
    <DistancePreference>Aerial</DistancePreference>
  </Volunteer>
  <Volunteer>
    <Id>233482868</Id>
    <FullName>Moshe Barak</FullName>
    <MobilePhone>0524153395</MobilePhone>
    <Email>moshe.barak@ail.com</Email>
    <Role>Volunteer</Role>
    <IsActive>true</IsActive>
    <Password>15756031</Password>
    <CurrentAddress>Degania Blvd 50, Holon</CurrentAddress>
    <Latitude>32.0094</Latitude>
    <Longitude>34.7766</Longitude>
    <MaxCallDistance>37</MaxCallDistance>
    <DistancePreference>Aerial</DistancePreference>
  </Volunteer>
  <Volunteer>
    <Id>372434225</Id>
    <FullName>Tali Katz</FullName>
    <MobilePhone>0520903166</MobilePhone>
    <Email>tali.katz@ail.com</Email>
    <Role>Volunteer</Role>
    <IsActive>true</IsActive>
    <Password>89598169</Password>
    <CurrentAddress>Ben Gurion St 35, Bat Yam</CurrentAddress>
    <Latitude>32.0233</Latitude>
    <Longitude>34.7503</Longitude>
    <MaxCallDistance>35</MaxCallDistance>
    <DistancePreference>Aerial</DistancePreference>
  </Volunteer>
  <Volunteer>
    <Id>208014191</Id>
    <FullName>Dina Rozenberg</FullName>
    <MobilePhone>0571268615</MobilePhone>
    <Email>dina.rozenberg@ail.com</Email>
    <Role>Volunteer</Role>
    <IsActive>true</IsActive>
    <Password>34140282</Password>
    <CurrentAddress>Herzl St 40, Kfar Saba</CurrentAddress>
    <Latitude>32.1753</Latitude>
    <Longitude>34.9067</Longitude>
    <MaxCallDistance>58</MaxCallDistance>
    <DistancePreference>Aerial</DistancePreference>
  </Volunteer>
  <Volunteer>
    <Id>336237706</Id>
    <FullName>Liat Sharon</FullName>
    <MobilePhone>0519366200</MobilePhone>
    <Email>liat.sharon@ail.com</Email>
    <Role>Volunteer</Role>
    <IsActive>true</IsActive>
    <Password>19505126</Password>
    <CurrentAddress>Gordon St 8, Netanya</CurrentAddress>
    <Latitude>32.3328</Latitude>
    <Longitude>34.8556</Longitude>
    <MaxCallDistance>47</MaxCallDistance>
    <DistancePreference>Aerial</DistancePreference>
  </Volunteer>
  <Volunteer>
    <Id>211612205</Id>
    <FullName>Avi Hasson</FullName>
    <MobilePhone>0529032513</MobilePhone>
    <Email>avi.hasson@ail.com</Email>
    <Role>Volunteer</Role>
    <IsActive>true</IsActive>
    <Password>88924721</Password>
    <CurrentAddress>Yehudit Blvd 10, Tel Aviv</CurrentAddress>
    <Latitude>32.0625</Latitude>
    <Longitude>34.7942</Longitude>
    <MaxCallDistance>54</MaxCallDistance>
    <DistancePreference>Aerial</DistancePreference>
  </Volunteer>
  <Volunteer>
    <Id>307139048</Id>
    <FullName>Yael Zimmerman</FullName>
    <MobilePhone>0535048181</MobilePhone>
    <Email>yael.zimmerman@ail.com</Email>
    <Role>Volunteer</Role>
    <IsActive>true</IsActive>
    <Password>99984920</Password>
    <CurrentAddress>Hayam St 2, Eilat</CurrentAddress>
    <Latitude>29.5535</Latitude>
    <Longitude>34.9519</Longitude>
    <MaxCallDistance>44</MaxCallDistance>
    <DistancePreference>Aerial</DistancePreference>
  </Volunteer>
  <Volunteer>
    <Id>231732090</Id>
    <FullName>Omar Rafael</FullName>
    <MobilePhone>0575333060</MobilePhone>
    <Email>omar.rafael@ail.com</Email>
    <Role>Volunteer</Role>
    <IsActive>true</IsActive>
    <Password>78172452</Password>
    <CurrentAddress>Horev St 17, Haifa</CurrentAddress>
    <Latitude>32.7811</Latitude>
    <Longitude>35.0105</Longitude>
    <MaxCallDistance>58</MaxCallDistance>
    <DistancePreference>Aerial</DistancePreference>
  </Volunteer>
  <Volunteer>
    <Id>328308721</Id>
    <FullName>Omar Rafael</FullName>
    <MobilePhone>0598138457</MobilePhone>
    <Email>shimony2017@gmail.com</Email>
    <Role>Admin</Role>
    <IsActive>true</IsActive>
    <Password>1</Password>
    <CurrentAddress>Horev St 17, Haifa</CurrentAddress>
    <Latitude>32.7812512</Latitude>
    <Longitude>34.9908165</Longitude>
    <MaxCallDistance>41</MaxCallDistance>
    <DistancePreference>Aerial</DistancePreference>
  </Volunteer>
</Volunteers>