<?xml version="1.0" encoding="utf-8"?>
<Volunteers>
  <Volunteer>
    <Id>321577199</Id>
    <FullName>Tomer Friedman</FullName>
    <MobilePhone>0519059761</MobilePhone>
    <Email>tomer.friedman@ail.com</Email>
    <Role>Volunteer</Role>
    <IsActive>true</IsActive>
    <Password>65442364</Password>
    <CurrentAddress>Herzl St 4, Beersheba</CurrentAddress>
    <Latitude>31.2526</Latitude>
    <Longitude>34.7925</Longitude>
    <MaxCallDistance>38</MaxCallDistance>
    <DistancePreference>Aerial</DistancePreference>
  </Volunteer>
  <Volunteer>
    <Id>284470093</Id>
    <FullName>Naama Avidan</FullName>
    <MobilePhone>0554560473</MobilePhone>
    <Email>naama.avidan@ail.com</Email>
    <Role>Volunteer</Role>
    <IsActive>true</IsActive>
    <Password>34699859</Password>
    <CurrentAddress>Hanasi St 120, Ashdod</CurrentAddress>
    <Latitude>31.7926</Latitude>
    <Longitude>34.6496</Longitude>
    <MaxCallDistance>44</MaxCallDistance>
    <DistancePreference>Aerial</DistancePreference>
  </Volunteer>
  <Volunteer>
    <Id>250678190</Id>
    <FullName>Ron Goldman</FullName>
    <MobilePhone>0577166319</MobilePhone>
    <Email>ron.goldman@ail.com</Email>
    <Role>Volunteer</Role>
    <IsActive>true</IsActive>
    <Password>37715114</Password>
    <CurrentAddress>Chen Blvd 3, Ra'anana</CurrentAddress>
    <Latitude>32.1847</Latitude>
    <Longitude>34.8709</Longitude>
    <MaxCallDistance>39</MaxCallDistance>
    <DistancePreference>Aerial</DistancePreference>
  </Volunteer>
  <Volunteer>
    <Id>296191869</Id>
    <FullName>Elinor Bachar</FullName>
    <MobilePhone>0519839316</MobilePhone>
    <Email>elinor.bachar@ail.com</Email>
    <Role>Volunteer</Role>
    <IsActive>true</IsActive>
    <Password>33695817</Password>
    <CurrentAddress>Hacarmel St 5, Afula</CurrentAddress>
    <Latitude>32.6072</Latitude>
    <Longitude>35.2903</Longitude>
    <MaxCallDistance>57</MaxCallDistance>
    <DistancePreference>Aerial</DistancePreference>
  </Volunteer>
  <Volunteer>
    <Id>251254827</Id>
    <FullName>Moshe Barak</FullName>
    <MobilePhone>0526312781</MobilePhone>
    <Email>moshe.barak@ail.com</Email>
    <Role>Volunteer</Role>
    <IsActive>false</IsActive>
    <Password>16972085</Password>
    <CurrentAddress>Degania Blvd 50, Holon</CurrentAddress>
    <Latitude>32.0094</Latitude>
    <Longitude>34.7766</Longitude>
    <MaxCallDistance>54</MaxCallDistance>
    <DistancePreference>Aerial</DistancePreference>
  </Volunteer>
  <Volunteer>
    <Id>371127234</Id>
    <FullName>Tali Katz</FullName>
    <MobilePhone>0552253238</MobilePhone>
    <Email>tali.katz@ail.com</Email>
    <Role>Volunteer</Role>
    <IsActive>true</IsActive>
    <Password>22029755</Password>
    <CurrentAddress>Ben Gurion St 35, Bat Yam</CurrentAddress>
    <Latitude>32.0233</Latitude>
    <Longitude>34.7503</Longitude>
    <MaxCallDistance>50</MaxCallDistance>
    <DistancePreference>Aerial</DistancePreference>
  </Volunteer>
  <Volunteer>
    <Id>302281506</Id>
    <FullName>Dina Rozenberg</FullName>
    <MobilePhone>0511814428</MobilePhone>
    <Email>dina.rozenberg@ail.com</Email>
    <Role>Volunteer</Role>
    <IsActive>true</IsActive>
    <Password>67510001</Password>
    <CurrentAddress>Herzl St 40, Kfar Saba</CurrentAddress>
    <Latitude>32.1753</Latitude>
    <Longitude>34.9067</Longitude>
    <MaxCallDistance>34</MaxCallDistance>
    <DistancePreference>Aerial</DistancePreference>
  </Volunteer>
  <Volunteer>
    <Id>364349613</Id>
    <FullName>Avi Hasson</FullName>
    <MobilePhone>0580140353</MobilePhone>
    <Email>avi.hasson@ail.com</Email>
    <Role>Volunteer</Role>
    <IsActive>true</IsActive>
    <Password>37557517</Password>
    <CurrentAddress>Yehudit Blvd 10, Tel Aviv</CurrentAddress>
    <Latitude>32.0625</Latitude>
    <Longitude>34.7942</Longitude>
    <MaxCallDistance>58</MaxCallDistance>
    <DistancePreference>Aerial</DistancePreference>
  </Volunteer>
  <Volunteer>
    <Id>328308721</Id>
    <FullName>Omar Rafael</FullName>
    <MobilePhone>0598138457</MobilePhone>
    <Email>shimony2017@gmail.com</Email>
    <Role>Admin</Role>
    <IsActive>true</IsActive>
    <Password>1</Password>
    <CurrentAddress>Horev St 17, Haifa</CurrentAddress>
    <Latitude>32.7803661</Latitude>
    <Longitude>34.9916436</Longitude>
    <MaxCallDistance>41</MaxCallDistance>
    <DistancePreference>Aerial</DistancePreference>
  </Volunteer>
  <Volunteer>
    <Id>258004753</Id>
    <FullName>Omar Rafael</FullName>
    <MobilePhone>0560762356</MobilePhone>
    <Email>shimony2017@gmail.com</Email>
    <Role>Volunteer</Role>
    <IsActive>true</IsActive>
    <Password>1</Password>
    <CurrentAddress>Horev St 17, Haifa</CurrentAddress>
    <Latitude>32.7803661</Latitude>
    <Longitude>34.9916436</Longitude>
    <MaxCallDistance>30</MaxCallDistance>
    <DistancePreference>Aerial</DistancePreference>
  </Volunteer>
  <Volunteer>
    <Id>224175059</Id>
    <FullName>Yael Zimmerman</FullName>
    <MobilePhone>0553145575</MobilePhone>
    <Email>yael.zimmerman@ail.com</Email>
    <Role>Volunteer</Role>
    <IsActive>true</IsActive>
    <Password>1</Password>
    <CurrentAddress>Hayam St 2, Eilat</CurrentAddress>
    <Latitude>29.5478558</Latitude>
    <Longitude>34.970292</Longitude>
    <MaxCallDistance>31</MaxCallDistance>
    <DistancePreference>Aerial</DistancePreference>
  </Volunteer>
  <Volunteer>
    <Id>347859910</Id>
    <FullName>Liat Sharon</FullName>
    <MobilePhone>0599491423</MobilePhone>
    <Email>liat.sharon@ail.com</Email>
    <Role>Volunteer</Role>
    <IsActive>true</IsActive>
    <Password>1</Password>
    <CurrentAddress>Gordon St 8, Netanya</CurrentAddress>
    <Latitude>32.3304569</Latitude>
    <Longitude>34.8577679</Longitude>
    <MaxCallDistance>34</MaxCallDistance>
    <DistancePreference>Aerial</DistancePreference>
  </Volunteer>
  <Volunteer>
    <Id>225752849</Id>
    <FullName>Sarit Israeli</FullName>
    <MobilePhone>0563240448</MobilePhone>
    <Email>sarit.israeli@ail.com</Email>
    <Role>Volunteer</Role>
    <IsActive>true</IsActive>
    <Password>1</Password>
    <CurrentAddress>Haatzmaut 85, Haifa</CurrentAddress>
    <Latitude>32.8172273</Latitude>
    <Longitude>35.0022169</Longitude>
    <MaxCallDistance>51</MaxCallDistance>
    <DistancePreference>Aerial</DistancePreference>
  </Volunteer>
  <Volunteer>
    <Id>310547377</Id>
    <FullName>Daniel Cohen</FullName>
    <MobilePhone>0511646199</MobilePhone>
    <Email>daniel.cohen@ail.com</Email>
    <Role>Volunteer</Role>
    <IsActive>true</IsActive>
    <Password>96299908</Password>
    <CurrentAddress>Hanasi 120, Ashdod</CurrentAddress>
    <Latitude>31.8023552</Latitude>
    <Longitude>34.6541197</Longitude>
    <MaxCallDistance>58</MaxCallDistance>
    <DistancePreference>Aerial</DistancePreference>
  </Volunteer>
  <Volunteer>
    <Id>206028011</Id>
    <FullName>Michal Levy</FullName>
    <MobilePhone>0555096260</MobilePhone>
    <Email>michal.levy@ail.com</Email>
    <Role>Admin</Role>
    <IsActive>true</IsActive>
    <Password>82220017</Password>
    <CurrentAddress>Rothschild 16, Tel Aviv</CurrentAddress>
    <Latitude>32.0242493</Latitude>
    <Longitude>34.7724276</Longitude>
    <MaxCallDistance>31</MaxCallDistance>
    <DistancePreference>Aerial</DistancePreference>
  </Volunteer>
  <Volunteer>
    <Id>375912896</Id>
    <FullName>Yossi Mizrahi</FullName>
    <MobilePhone>0538613434</MobilePhone>
    <Email>yossi.mizrahi@ail.com</Email>
    <Role>Admin</Role>
    <IsActive>true</IsActive>
    <Password>64570421</Password>
    <CurrentAddress>Rothschild 18, Tel Aviv</CurrentAddress>
    <Latitude>32.0244175</Latitude>
    <Longitude>34.772635</Longitude>
    <MaxCallDistance>42</MaxCallDistance>
    <DistancePreference>Aerial</DistancePreference>
  </Volunteer>
</Volunteers>