<?xml version="1.0" encoding="utf-8"?>
<Volunteers>
  <Volunteer>
    <Id>328274536</Id>
    <Name>Daniel Cohen</Name>
    <MobilePhone>0597399158</MobilePhone>
    <Email>daniel.cohen@gmail.com</Email>
    <Role>Volunteer</Role>
    <IsActive>true</IsActive>
    <Password>548069220</Password>
    <CurrentAddress>Dizengoff St 50, Tel Aviv</CurrentAddress>
    <Latitude>32.0764</Latitude>
    <Longitude>34.7745</Longitude>
    <MaxCallDistance>4</MaxCallDistance>
    <DistancePreference>Aerial</DistancePreference>
  </Volunteer>
  <Volunteer>
    <Id>231314120</Id>
    <Name>Michal Levy</Name>
    <MobilePhone>0541784703</MobilePhone>
    <Email>michal.levy@gmail.com</Email>
    <Role>Volunteer</Role>
    <IsActive>true</IsActive>
    <Password>773513005</Password>
    <CurrentAddress>Jaffa St 1, Jerusalem</CurrentAddress>
    <Latitude>31.7823</Latitude>
    <Longitude>35.2191</Longitude>
    <MaxCallDistance>14</MaxCallDistance>
    <DistancePreference>Aerial</DistancePreference>
  </Volunteer>
  <Volunteer>
    <Id>366290519</Id>
    <Name>Yossi Mizrahi</Name>
    <MobilePhone>0597088895</MobilePhone>
    <Email>yossi.mizrahi@gmail.com</Email>
    <Role>Volunteer</Role>
    <IsActive>true</IsActive>
    <Password>490076784</Password>
    <CurrentAddress>Rothschild Blvd 16, Tel Aviv</CurrentAddress>
    <Latitude>32.0657</Latitude>
    <Longitude>34.7741</Longitude>
    <MaxCallDistance>16</MaxCallDistance>
    <DistancePreference>Aerial</DistancePreference>
  </Volunteer>
  <Volunteer>
    <Id>258537905</Id>
    <Name>Sarit Israeli</Name>
    <MobilePhone>0566524190</MobilePhone>
    <Email>sarit.israeli@gmail.com</Email>
    <Role>Volunteer</Role>
    <IsActive>true</IsActive>
    <Password>368325029</Password>
    <CurrentAddress>Haatzmaut St 85, Haifa</CurrentAddress>
    <Latitude>32.8191</Latitude>
    <Longitude>34.9972</Longitude>
    <MaxCallDistance>18</MaxCallDistance>
    <DistancePreference>Aerial</DistancePreference>
  </Volunteer>
  <Volunteer>
    <Id>315677228</Id>
    <Name>Tomer Friedman</Name>
    <MobilePhone>0581661698</MobilePhone>
    <Email>tomer.friedman@gmail.com</Email>
    <Role>Volunteer</Role>
    <IsActive>true</IsActive>
    <Password>717556717</Password>
    <CurrentAddress>Herzl St 4, Beersheba</CurrentAddress>
    <Latitude>31.2526</Latitude>
    <Longitude>34.7925</Longitude>
    <MaxCallDistance>10</MaxCallDistance>
    <DistancePreference>Aerial</DistancePreference>
  </Volunteer>
  <Volunteer>
    <Id>263727413</Id>
    <Name>Naama Avidan</Name>
    <MobilePhone>0535688347</MobilePhone>
    <Email>naama.avidan@gmail.com</Email>
    <Role>Volunteer</Role>
    <IsActive>true</IsActive>
    <Password>286348038</Password>
    <CurrentAddress>Hanasi St 120, Ashdod</CurrentAddress>
    <Latitude>31.7926</Latitude>
    <Longitude>34.6496</Longitude>
    <MaxCallDistance>9</MaxCallDistance>
    <DistancePreference>Aerial</DistancePreference>
  </Volunteer>
  <Volunteer>
    <Id>348115685</Id>
    <Name>Ron Goldman</Name>
    <MobilePhone>0564933301</MobilePhone>
    <Email>ron.goldman@gmail.com</Email>
    <Role>Volunteer</Role>
    <IsActive>true</IsActive>
    <Password>93439235</Password>
    <CurrentAddress>Chen Blvd 3, Ra'anana</CurrentAddress>
    <Latitude>32.1847</Latitude>
    <Longitude>34.8709</Longitude>
    <MaxCallDistance>4</MaxCallDistance>
    <DistancePreference>Aerial</DistancePreference>
  </Volunteer>
  <Volunteer>
    <Id>288746589</Id>
    <Name>Elinor Bachar</Name>
    <MobilePhone>0562889264</MobilePhone>
    <Email>elinor.bachar@gmail.com</Email>
    <Role>Volunteer</Role>
    <IsActive>true</IsActive>
    <Password>788085194</Password>
    <CurrentAddress>Hacarmel St 5, Afula</CurrentAddress>
    <Latitude>32.6072</Latitude>
    <Longitude>35.2903</Longitude>
    <MaxCallDistance>9</MaxCallDistance>
    <DistancePreference>Aerial</DistancePreference>
  </Volunteer>
  <Volunteer>
    <Id>327228538</Id>
    <Name>Moshe Barak</Name>
    <MobilePhone>0538466534</MobilePhone>
    <Email>moshe.barak@gmail.com</Email>
    <Role>Volunteer</Role>
    <IsActive>true</IsActive>
    <Password>210295353</Password>
    <CurrentAddress>Degania Blvd 50, Holon</CurrentAddress>
    <Latitude>32.0094</Latitude>
    <Longitude>34.7766</Longitude>
    <MaxCallDistance>7</MaxCallDistance>
    <DistancePreference>Aerial</DistancePreference>
  </Volunteer>
  <Volunteer>
    <Id>217702823</Id>
    <Name>Tali Katz</Name>
    <MobilePhone>0577694588</MobilePhone>
    <Email>tali.katz@gmail.com</Email>
    <Role>Volunteer</Role>
    <IsActive>true</IsActive>
    <Password>517347372</Password>
    <CurrentAddress>Ben Gurion St 35, Bat Yam</CurrentAddress>
    <Latitude>32.0233</Latitude>
    <Longitude>34.7503</Longitude>
    <MaxCallDistance>2</MaxCallDistance>
    <DistancePreference>Aerial</DistancePreference>
  </Volunteer>
  <Volunteer>
    <Id>230147592</Id>
    <Name>Dina Rozenberg</Name>
    <MobilePhone>0594342815</MobilePhone>
    <Email>dina.rozenberg@gmail.com</Email>
    <Role>Volunteer</Role>
    <IsActive>true</IsActive>
    <Password>647276683</Password>
    <CurrentAddress>Herzl St 40, Kfar Saba</CurrentAddress>
    <Latitude>32.1753</Latitude>
    <Longitude>34.9067</Longitude>
    <MaxCallDistance>4</MaxCallDistance>
    <DistancePreference>Aerial</DistancePreference>
  </Volunteer>
  <Volunteer>
    <Id>336565263</Id>
    <Name>Liat Sharon</Name>
    <MobilePhone>0566858204</MobilePhone>
    <Email>liat.sharon@gmail.com</Email>
    <Role>Volunteer</Role>
    <IsActive>true</IsActive>
    <Password>7018456</Password>
    <CurrentAddress>Gordon St 8, Netanya</CurrentAddress>
    <Latitude>32.3328</Latitude>
    <Longitude>34.8556</Longitude>
    <MaxCallDistance>19</MaxCallDistance>
    <DistancePreference>Aerial</DistancePreference>
  </Volunteer>
  <Volunteer>
    <Id>292455933</Id>
    <Name>Avi Hasson</Name>
    <MobilePhone>0582003012</MobilePhone>
    <Email>avi.hasson@gmail.com</Email>
    <Role>Volunteer</Role>
    <IsActive>true</IsActive>
    <Password>260160886</Password>
    <CurrentAddress>Yehudit Blvd 10, Tel Aviv</CurrentAddress>
    <Latitude>32.0625</Latitude>
    <Longitude>34.7942</Longitude>
    <MaxCallDistance>10</MaxCallDistance>
    <DistancePreference>Aerial</DistancePreference>
  </Volunteer>
  <Volunteer>
    <Id>357915642</Id>
    <Name>Yael Zimmerman</Name>
    <MobilePhone>0558551310</MobilePhone>
    <Email>yael.zimmerman@gmail.com</Email>
    <Role>Volunteer</Role>
    <IsActive>true</IsActive>
    <Password>952595851</Password>
    <CurrentAddress>Hayam St 2, Eilat</CurrentAddress>
    <Latitude>29.5535</Latitude>
    <Longitude>34.9519</Longitude>
    <MaxCallDistance>13</MaxCallDistance>
    <DistancePreference>Aerial</DistancePreference>
  </Volunteer>
  <Volunteer>
    <Id>288290068</Id>
    <Name>Omar Rafael</Name>
    <MobilePhone>0589973452</MobilePhone>
    <Email>omar.rafael@gmail.com</Email>
    <Role>Volunteer</Role>
    <IsActive>true</IsActive>
    <Password>64932039</Password>
    <CurrentAddress>Horev St 17, Haifa</CurrentAddress>
    <Latitude>32.7811</Latitude>
    <Longitude>35.0105</Longitude>
    <MaxCallDistance>4</MaxCallDistance>
    <DistancePreference>Aerial</DistancePreference>
  </Volunteer>
</Volunteers>