<?xml version="1.0" encoding="utf-8"?>
<Volunteers>
  <Volunteer>
    <Id>319324760</Id>
    <FullName>Daniel Cohen</FullName>
    <MobilePhone>0553943864</MobilePhone>
    <Email>daniel.cohen@ail.com</Email>
    <Role>Volunteer</Role>
    <IsActive>true</IsActive>
    <Password>IQsBbyu</Password>
    <CurrentAddress>Dizengoff St 50, Tel Aviv</CurrentAddress>
    <Latitude>32.0764</Latitude>
    <Longitude>34.7745</Longitude>
    <MaxCallDistance>52</MaxCallDistance>
    <DistancePreference>Aerial</DistancePreference>
  </Volunteer>
  <Volunteer>
    <Id>380803270</Id>
    <FullName>Michal Levy</FullName>
    <MobilePhone>0585873088</MobilePhone>
    <Email>michal.levy@ail.com</Email>
    <Role>Admin</Role>
    <IsActive>true</IsActive>
    <Password>cjdgfV</Password>
    <CurrentAddress>Jaffa St 1, Jerusalem</CurrentAddress>
    <Latitude>31.7823</Latitude>
    <Longitude>35.2191</Longitude>
    <MaxCallDistance>40</MaxCallDistance>
    <DistancePreference>Aerial</DistancePreference>
  </Volunteer>
  <Volunteer>
    <Id>368123014</Id>
    <FullName>Yossi Mizrahi</FullName>
    <MobilePhone>0555089906</MobilePhone>
    <Email>yossi.mizrahi@ail.com</Email>
    <Role>Admin</Role>
    <IsActive>true</IsActive>
    <Password>vXJDdQZUS</Password>
    <CurrentAddress>Rothschild Blvd 16, Tel Aviv</CurrentAddress>
    <Latitude>32.0657</Latitude>
    <Longitude>34.7741</Longitude>
    <MaxCallDistance>46</MaxCallDistance>
    <DistancePreference>Aerial</DistancePreference>
  </Volunteer>
  <Volunteer>
    <Id>320897598</Id>
    <FullName>Sarit Israeli</FullName>
    <MobilePhone>0567238737</MobilePhone>
    <Email>sarit.israeli@ail.com</Email>
    <Role>Volunteer</Role>
    <IsActive>true</IsActive>
    <Password>FFaNmyfn</Password>
    <CurrentAddress>Haatzmaut St 85, Haifa</CurrentAddress>
    <Latitude>32.8191</Latitude>
    <Longitude>34.9972</Longitude>
    <MaxCallDistance>41</MaxCallDistance>
    <DistancePreference>Aerial</DistancePreference>
  </Volunteer>
  <Volunteer>
    <Id>312062425</Id>
    <FullName>Tomer Friedman</FullName>
    <MobilePhone>0595670470</MobilePhone>
    <Email>tomer.friedman@ail.com</Email>
    <Role>Volunteer</Role>
    <IsActive>true</IsActive>
    <Password>WEGS6JHUZ</Password>
    <CurrentAddress>Herzl St 4, Beersheba</CurrentAddress>
    <Latitude>31.2526</Latitude>
    <Longitude>34.7925</Longitude>
    <MaxCallDistance>56</MaxCallDistance>
    <DistancePreference>Aerial</DistancePreference>
  </Volunteer>
  <Volunteer>
    <Id>366794402</Id>
    <FullName>Naama Avidan</FullName>
    <MobilePhone>0567141502</MobilePhone>
    <Email>naama.avidan@ail.com</Email>
    <Role>Volunteer</Role>
    <IsActive>true</IsActive>
    <Password>eHTEbI</Password>
    <CurrentAddress>Hanasi St 120, Ashdod</CurrentAddress>
    <Latitude>31.7926</Latitude>
    <Longitude>34.6496</Longitude>
    <MaxCallDistance>50</MaxCallDistance>
    <DistancePreference>Aerial</DistancePreference>
  </Volunteer>
  <Volunteer>
    <Id>218630424</Id>
    <FullName>Ron Goldman</FullName>
    <MobilePhone>0510773914</MobilePhone>
    <Email>ron.goldman@ail.com</Email>
    <Role>Volunteer</Role>
    <IsActive>true</IsActive>
    <Password>b92Uk5</Password>
    <CurrentAddress>Chen Blvd 3, Ra'anana</CurrentAddress>
    <Latitude>32.1847</Latitude>
    <Longitude>34.8709</Longitude>
    <MaxCallDistance>46</MaxCallDistance>
    <DistancePreference>Aerial</DistancePreference>
  </Volunteer>
  <Volunteer>
    <Id>206797359</Id>
    <FullName>Elinor Bachar</FullName>
    <MobilePhone>0577874100</MobilePhone>
    <Email>elinor.bachar@ail.com</Email>
    <Role>Volunteer</Role>
    <IsActive>true</IsActive>
    <Password>YqDIRh</Password>
    <CurrentAddress>Hacarmel St 5, Afula</CurrentAddress>
    <Latitude>32.6072</Latitude>
    <Longitude>35.2903</Longitude>
    <MaxCallDistance>38</MaxCallDistance>
    <DistancePreference>Aerial</DistancePreference>
  </Volunteer>
  <Volunteer>
    <Id>397440967</Id>
    <FullName>Moshe Barak</FullName>
    <MobilePhone>0520323457</MobilePhone>
    <Email>moshe.barak@ail.com</Email>
    <Role>Volunteer</Role>
    <IsActive>true</IsActive>
    <Password>TWgd9PZ</Password>
    <CurrentAddress>Degania Blvd 50, Holon</CurrentAddress>
    <Latitude>32.0094</Latitude>
    <Longitude>34.7766</Longitude>
    <MaxCallDistance>48</MaxCallDistance>
    <DistancePreference>Aerial</DistancePreference>
  </Volunteer>
  <Volunteer>
    <Id>295361836</Id>
    <FullName>Tali Katz</FullName>
    <MobilePhone>0582901669</MobilePhone>
    <Email>tali.katz@ail.com</Email>
    <Role>Volunteer</Role>
    <IsActive>true</IsActive>
    <Password>k7RyjXqbWS</Password>
    <CurrentAddress>Ben Gurion St 35, Bat Yam</CurrentAddress>
    <Latitude>32.0233</Latitude>
    <Longitude>34.7503</Longitude>
    <MaxCallDistance>42</MaxCallDistance>
    <DistancePreference>Aerial</DistancePreference>
  </Volunteer>
  <Volunteer>
    <Id>247231129</Id>
    <FullName>Dina Rozenberg</FullName>
    <MobilePhone>0591889497</MobilePhone>
    <Email>dina.rozenberg@ail.com</Email>
    <Role>Volunteer</Role>
    <IsActive>true</IsActive>
    <Password>CQSo6DT5UV</Password>
    <CurrentAddress>Herzl St 40, Kfar Saba</CurrentAddress>
    <Latitude>32.1753</Latitude>
    <Longitude>34.9067</Longitude>
    <MaxCallDistance>32</MaxCallDistance>
    <DistancePreference>Aerial</DistancePreference>
  </Volunteer>
  <Volunteer>
    <Id>348166141</Id>
    <FullName>Liat Sharon</FullName>
    <MobilePhone>0574573686</MobilePhone>
    <Email>liat.sharon@ail.com</Email>
    <Role>Volunteer</Role>
    <IsActive>true</IsActive>
    <Password>ECL0ZYZu</Password>
    <CurrentAddress>Gordon St 8, Netanya</CurrentAddress>
    <Latitude>32.3328</Latitude>
    <Longitude>34.8556</Longitude>
    <MaxCallDistance>48</MaxCallDistance>
    <DistancePreference>Aerial</DistancePreference>
  </Volunteer>
  <Volunteer>
    <Id>232027466</Id>
    <FullName>Avi Hasson</FullName>
    <MobilePhone>0528904992</MobilePhone>
    <Email>avi.hasson@ail.com</Email>
    <Role>Volunteer</Role>
    <IsActive>true</IsActive>
    <Password>431xmaIHAH</Password>
    <CurrentAddress>Yehudit Blvd 10, Tel Aviv</CurrentAddress>
    <Latitude>32.0625</Latitude>
    <Longitude>34.7942</Longitude>
    <MaxCallDistance>35</MaxCallDistance>
    <DistancePreference>Aerial</DistancePreference>
  </Volunteer>
  <Volunteer>
    <Id>297736571</Id>
    <FullName>Yael Zimmerman</FullName>
    <MobilePhone>0516833313</MobilePhone>
    <Email>yael.zimmerman@ail.com</Email>
    <Role>Volunteer</Role>
    <IsActive>true</IsActive>
    <Password>0UB51ulj</Password>
    <CurrentAddress>Hayam St 2, Eilat</CurrentAddress>
    <Latitude>29.5535</Latitude>
    <Longitude>34.9519</Longitude>
    <MaxCallDistance>33</MaxCallDistance>
    <DistancePreference>Aerial</DistancePreference>
  </Volunteer>
  <Volunteer>
    <Id>324940717</Id>
    <FullName>Omar Rafael</FullName>
    <MobilePhone>0567198828</MobilePhone>
    <Email>omar.rafael@ail.com</Email>
    <Role>Volunteer</Role>
    <IsActive>true</IsActive>
    <Password>hG3omAu</Password>
    <CurrentAddress>Horev St 17, Haifa</CurrentAddress>
    <Latitude>32.7811</Latitude>
    <Longitude>35.0105</Longitude>
    <MaxCallDistance>48</MaxCallDistance>
    <DistancePreference>Aerial</DistancePreference>
  </Volunteer>
	<Volunteer>
		<Id>328308721</Id>
		<FullName>Omar Rafael</FullName>
		<MobilePhone>0598138457</MobilePhone>
		<Email>omar.rafael@ail.com</Email>
		<Role>Admin</Role>
		<IsActive>true</IsActive>
		<Password>1</Password>
		<CurrentAddress>Horev St 17, Haifa</CurrentAddress>
		<Latitude>32.7811</Latitude>
		<Longitude>35.0105</Longitude>
		<MaxCallDistance>41</MaxCallDistance>
		<DistancePreference>Aerial</DistancePreference>
	</Volunteer>
</Volunteers>